City_ID,City,Lat,Lng,Max Temp,Humidity,Cloudiness,Wind Speed,Country,Date
0,Vaini,-21.2,-175.2,71.76,94,75,12.66,TO,1666370642
1,Sampit,-2.5333,112.95,76.01,97,100,1.01,ID,1666370643
2,Barrow,71.2906,-156.7887,26.62,93,100,28.77,US,1666370537
3,George Town,5.4112,100.3354,80.53,95,40,8.05,MY,1666369822
4,Busselton,-33.65,115.3333,54.09,79,69,7.78,AU,1666370645
5,Puerto Nariño,-3.7703,-70.3831,85.46,72,97,2.57,CO,1666370645
6,Salé,34.0389,-6.8166,81.64,60,100,8.05,MA,1666370646
7,Ilulissat,69.2167,-51.1,32.02,93,100,3.44,GL,1666370646
8,Lodwar,3.1191,35.5973,88.74,32,91,22.35,KE,1666370647
9,Hilo,19.7297,-155.09,79.29,80,0,4.61,US,1666370647
10,Mataura,-46.1927,168.8643,32.68,98,5,2.06,NZ,1666370648
11,Cape Town,-33.9258,18.4232,66.27,68,0,28.77,ZA,1666370524
12,Chokurdakh,70.6333,147.9167,11.34,94,100,12.66,RU,1666370649
13,Lorengau,-2.0226,147.2712,80.74,77,36,5.03,PG,1666370649
14,Mīrābād,30.4362,61.8383,73.51,11,51,4.07,AF,1666370650
15,Punta Arenas,-53.15,-70.9167,51.82,39,100,27.07,CL,1666370424
16,Ambilobe,-13.2,49.05,72.77,73,47,2.71,MG,1666370651
17,Haicheng,40.8516,122.7475,52.09,84,25,3.04,CN,1666370651
18,East London,-33.0153,27.9116,70.74,78,75,12.66,ZA,1666370652
19,Kantemirovka,49.7089,39.8592,39.94,70,8,6.35,RU,1666370653
20,Saint-Joseph,-21.3667,55.6167,70.18,83,38,10.45,RE,1666370654
21,Port Alfred,-33.5906,26.891,69.19,88,99,10.83,ZA,1666370654
22,Mahibadhoo,3.7833,72.9667,82.13,76,99,14.43,MV,1666370655
23,Carnarvon,-24.8667,113.6333,66.85,80,0,16.98,AU,1666370504
24,Ushuaia,-54.8,-68.3,51.42,50,75,25.32,AR,1666370643
25,Soanierana Ivongo,-16.9167,49.5833,69.04,85,7,2.06,MG,1666370657
26,Antalya Province,36.7741,30.7178,74.08,41,20,5.75,TR,1666370657
27,Bengbu,32.9408,117.3608,60.24,68,0,2.04,CN,1666370658
28,Mahébourg,-20.4081,57.7,73.69,83,40,8.05,MU,1666370658
29,Bluff,-46.6,168.3333,41.65,82,9,8.08,NZ,1666370659
30,Castro,-24.7911,-50.0119,64.0,93,99,10.67,BR,1666370659
31,Coquimbo,-29.9533,-71.3436,58.73,77,75,10.36,CL,1666370660
32,Touros,-5.1989,-35.4608,84.11,58,79,18.16,BR,1666370661
33,Tasiilaq,65.6145,-37.6368,32.16,98,100,4.74,GL,1666370661
34,Puerto Ayora,-0.7393,-90.3518,73.36,90,93,8.01,EC,1666370662
35,Mugango,-1.6833,33.7,77.18,64,100,6.02,TZ,1666370662
36,Aklavik,68.2191,-135.0107,21.2,93,100,3.44,CA,1666370663
37,Bambous Virieux,-20.3428,57.7575,73.65,83,40,8.05,MU,1666370663
38,Qaanaaq,77.484,-69.3632,-1.61,58,0,9.6,GL,1666370664
39,Cherskiy,68.75,161.3,4.24,95,100,7.61,RU,1666370664
40,Omboué,-1.5746,9.2618,77.85,83,67,8.81,GA,1666370665
41,Bredasdorp,-34.5322,20.0403,59.29,66,53,6.78,ZA,1666370665
42,Hobart,-42.8794,147.3294,62.46,93,75,3.44,AU,1666370623
43,St. George's,12.0564,-61.7485,89.28,70,40,12.66,GD,1666370521
44,Hasaki,35.7333,140.8333,63.0,68,78,16.69,JP,1666370667
45,Trincomalee,8.5711,81.2335,76.86,87,100,5.66,LK,1666370667
46,Norman Wells,65.282,-126.8329,21.24,100,75,2.3,CA,1666370668
47,Liwale,-9.7667,37.9333,75.97,42,29,10.85,TZ,1666370668
48,Sitka,57.0531,-135.33,44.49,81,75,3.44,US,1666370669
49,Maromitsa,59.8683,48.0123,29.25,84,50,7.83,RU,1666370669
50,Bilibino,68.0546,166.4372,10.27,97,100,2.55,RU,1666370659
51,Souillac,-20.5167,57.5167,73.78,83,40,8.05,MU,1666370670
52,Kulhudhuffushi,6.6221,73.07,81.03,82,100,13.09,MV,1666370670
53,Boddam,57.4667,-1.7833,53.98,97,100,14.03,GB,1666370671
54,Saint-Philippe,-21.3585,55.7679,71.19,84,48,11.43,RE,1666370671
55,Basco,20.4487,121.9702,81.18,85,100,16.8,PH,1666370671
56,Chui,-33.6971,-53.4616,65.16,78,100,9.57,UY,1666370672
57,Lavrentiya,65.5833,-171.0,34.39,94,100,6.76,RU,1666370673
58,Paamiut,61.994,-49.6678,42.28,76,100,37.07,GL,1666370673
59,New Norfolk,-42.7826,147.0587,62.1,90,100,1.14,AU,1666370675
60,Waverly,42.7392,-84.6208,64.15,49,0,16.11,US,1666370675
61,Nikolskoye,59.7035,30.7861,42.69,93,100,3.09,RU,1666370665
62,Bethel,41.3712,-73.414,62.55,39,0,1.99,US,1666370676
63,Tuktoyaktuk,69.4541,-133.0374,21.2,86,75,9.22,CA,1666370677
64,Hermanus,-34.4187,19.2345,64.8,69,7,11.41,ZA,1666370677
65,Palāsa,18.7667,84.4167,74.64,61,1,6.44,IN,1666370678
66,Rikitea,-23.1203,-134.9692,71.08,73,3,23.51,PF,1666370678
67,Arraial do Cabo,-22.9661,-42.0278,89.56,61,20,24.16,BR,1666370679
68,Kapasan,-6.7773,111.3789,77.29,90,100,6.69,ID,1666370679
69,Rovaniemi,66.5,25.7167,33.21,69,0,8.05,FI,1666370592
70,Rome,43.2128,-75.4557,59.68,32,0,8.05,US,1666370523
71,Cabo San Lucas,22.8909,-109.9124,86.61,75,27,1.01,MX,1666370612
72,Fortuna,40.5982,-124.1573,50.92,100,100,0.0,US,1666370681
73,Mar del Plata,-38.0023,-57.5575,56.88,82,100,18.41,AR,1666370415
74,Langsa,4.4683,97.9683,75.83,93,100,2.06,ID,1666370681
75,Jamestown,42.097,-79.2353,60.03,36,0,16.11,US,1666370513
76,Vila Velha,-20.3297,-40.2925,82.35,76,75,18.01,BR,1666370439
77,Richards Bay,-28.783,32.0377,73.29,85,77,8.19,ZA,1666370682
78,Denpasar,-8.65,115.2167,82.06,94,20,4.61,ID,1666370683
79,Butaritari,3.0707,172.7902,81.01,73,75,12.44,KI,1666370683
80,Seoul,37.5683,126.9778,51.24,97,75,2.3,KR,1666370288
81,Astoria,46.1879,-123.8313,51.85,95,100,4.21,US,1666370684
82,Sinnamary,5.3833,-52.95,85.6,65,90,9.6,GF,1666370684
83,Chernyshevskiy,63.0128,112.4714,25.45,91,100,3.98,RU,1666370684
84,Albany,42.6001,-73.9662,57.61,39,20,3.96,US,1666370008
85,Tiksi,71.6872,128.8694,4.91,97,44,6.71,RU,1666370685
86,Mayo,38.8876,-76.5119,66.34,40,0,4.61,US,1666370686
87,Ambon City,-3.6954,128.1814,75.34,94,72,6.91,ID,1666370686
88,Mont-Dore,-22.2833,166.5833,69.78,76,98,9.69,NC,1666370687
89,Saint-François,46.4154,3.9054,67.44,83,100,3.44,FR,1666370687
90,Isangel,-19.55,169.2667,73.08,80,92,13.6,VU,1666370688
91,Te Anau,-45.4167,167.7167,34.39,94,32,0.56,NZ,1666370688
92,Kupang,-10.1667,123.5833,80.67,79,63,4.14,ID,1666370689
93,San Quintín,30.4833,-115.95,71.06,68,34,3.71,MX,1666370689
94,Orange,33.7,-117.7675,77.68,81,20,0.0,US,1666370493
95,Havre-St-Pierre,50.2334,-63.5986,48.56,66,75,13.8,CA,1666370646
96,Longyearbyen,78.2186,15.6401,22.84,74,20,12.66,SJ,1666370455
97,Kavieng,-2.5744,150.7967,81.46,72,81,5.08,PG,1666370690
98,Yellowknife,62.456,-114.3525,30.72,86,100,6.91,CA,1666370691
99,Meulaboh,4.1363,96.1285,75.0,88,100,2.95,ID,1666370504
100,Cidreira,-30.1811,-50.2056,71.98,77,37,12.55,BR,1666370657
101,La Reforma,18.1,-91.0167,76.14,75,99,2.55,MX,1666370692
102,Taoudenni,22.6783,-3.9836,94.23,10,66,10.47,ML,1666370655
103,Coyhaique,-45.5752,-72.0662,51.75,35,0,5.75,CL,1666370693
104,Rincon,32.296,-81.2354,67.96,27,20,5.75,US,1666370492
105,Mabaruma,8.2,-59.7833,86.16,72,97,4.85,GY,1666370693
106,Ponta do Sol,32.6667,-17.1,77.0,90,99,4.16,PT,1666370694
107,Darhan,49.4867,105.9228,35.44,44,15,7.58,MN,1666370694
108,Carutapera,-1.195,-46.02,84.6,65,99,8.99,BR,1666370695
109,Khudumelapye,-23.8833,24.75,81.3,21,18,8.41,BW,1666370695
110,Creel,27.75,-107.6333,64.71,34,2,5.61,MX,1666370695
111,Primero de Enero,21.9469,-78.4283,81.88,68,88,4.38,CU,1666370696
112,Poum,-20.2333,164.0167,76.24,74,100,21.68,NC,1666370696
113,Garissa,-0.4536,39.6401,83.34,45,89,23.78,KE,1666370697
114,Kalianget,-7.05,113.9333,81.63,78,100,6.2,ID,1666370697
115,Pisco,-13.7,-76.2167,64.02,82,75,9.22,PE,1666370646
116,Taihe,30.8712,105.3845,67.33,49,9,2.01,CN,1666370698
117,Port Hardy,50.6996,-127.4199,46.58,100,100,4.61,CA,1666370698
118,Alice Springs,-23.7,133.8833,62.15,63,0,0.0,AU,1666370699
119,Leningradskiy,69.3833,178.4167,26.69,98,100,2.73,RU,1666370699
120,Lebu,-37.6167,-73.65,53.53,60,0,18.97,CL,1666370700
121,Genhe,50.7833,121.5167,18.34,95,12,1.7,CN,1666370700
122,Saint Paul Harbor,57.79,-152.4072,45.91,53,0,13.8,US,1666370700
123,Mehrān,33.1222,46.1646,82.4,20,15,6.42,IR,1666370701
124,‘Āhuimanu,21.4447,-157.8378,78.51,81,0,5.75,US,1666370702
125,San Borja,-14.8167,-66.85,70.05,97,100,7.7,BO,1666370702
126,Lockhart,28.6194,-81.4426,74.98,37,0,12.66,US,1666370526
127,Dzaoudzi,-12.7887,45.2699,76.89,73,0,3.44,YT,1666370703
128,Mendoza,-32.8908,-68.8272,72.93,27,0,13.8,AR,1666370699
129,Whitehorse,60.7161,-135.0538,36.37,91,100,3.44,CA,1666370512
130,Atuona,-9.8,-139.0333,76.53,67,97,17.47,PF,1666370705
131,Lata,40.1629,-8.3327,66.92,79,100,7.43,PT,1666370706
132,Berlevåg,70.8578,29.0864,32.0,74,0,13.8,NO,1666370706
133,Saint George,37.1041,-113.5841,57.79,33,0,3.44,US,1666370650
134,Goubellat,36.5418,9.6633,84.49,32,7,10.02,TN,1666370707
135,Takahagi,36.7167,140.7167,54.09,80,49,5.26,JP,1666370708
136,Upernavik,72.7868,-56.1549,16.86,73,99,6.51,GL,1666370708
137,Taguatinga,-12.3857,-46.5711,100.92,16,96,7.72,BR,1666370709
138,Chulumani,-16.4096,-67.5263,76.23,67,89,5.64,BO,1666370709
139,Ponta Delgada,37.7333,-25.6667,68.72,60,40,21.85,PT,1666370710
140,Pytalovo,57.0679,27.9138,44.19,78,100,4.88,RU,1666370710
141,Sarai Naurang,32.8259,70.7814,76.66,22,0,2.26,PK,1666370711
142,Ukiah,39.1502,-123.2078,78.04,62,0,0.0,US,1666370712
143,Dikson,73.5069,80.5464,31.95,92,100,11.34,RU,1666370712
144,Demba,-5.51,22.2667,70.65,87,85,1.79,CD,1666370713
145,Samarai,-10.6167,150.6667,80.76,78,80,2.15,PG,1666370714
146,Puro,12.4841,123.3827,79.77,87,51,6.44,PH,1666370714
147,Gizo Government Station,-8.103,156.8419,81.32,79,89,5.59,SB,1666370715
148,Udachny,66.4167,112.4,9.86,97,68,5.84,RU,1666370715
149,Mossamedes,-15.1961,12.1522,68.41,77,22,8.28,AO,1666370716
150,Merauke,-8.4667,140.3333,80.62,79,42,3.0,ID,1666370685
151,Kilindoni,-7.9139,39.6668,76.51,74,44,14.9,TZ,1666370717
152,Shangrao,28.4532,117.9686,62.85,59,14,2.35,CN,1666370469
153,Orbetello,42.4408,11.2196,69.82,80,99,14.25,IT,1666370717
154,Lompoc,34.6391,-120.4579,56.12,100,100,5.75,US,1666370564
155,Torbay,47.6666,-52.7314,58.87,78,75,11.5,CA,1666370718
156,Campo Verde,-20.4167,-54.0667,78.08,76,98,9.33,BR,1666370490
157,Clyde River,70.4692,-68.5914,28.63,86,100,13.8,CA,1666370719
158,Avarua,-21.2078,-159.775,75.25,88,100,14.97,CK,1666370720
159,Mount Gambier,-37.8333,140.7667,55.31,100,100,8.05,AU,1666370721
160,Kangaatsiaq,68.3065,-53.4641,36.5,93,100,11.74,GL,1666370724
161,Atikokan,48.7555,-91.6216,51.35,67,22,9.89,CA,1666370725
162,Pradera,3.4211,-76.2447,82.2,64,91,1.66,CO,1666370726
163,Kruisfontein,-34.0033,24.7314,60.89,80,100,10.38,ZA,1666370727
164,Codrington,-38.2667,141.9667,59.14,99,100,5.01,AU,1666370727
165,Byron Bay,-28.65,153.6167,65.71,87,100,12.88,AU,1666370663
166,Klaksvík,62.2266,-6.589,45.52,74,100,17.31,FO,1666370728
167,Husavik,66.0449,-17.3389,31.39,80,68,5.21,IS,1666370729
168,Northam,51.0333,-4.2167,59.61,96,90,16.87,GB,1666370729
169,College,64.8569,-147.8028,34.59,94,100,6.91,US,1666370730
170,Laas,46.6166,10.7002,52.36,98,100,3.8,IT,1666370730
171,Papetoai,-17.4961,-149.8729,78.3,74,5,15.46,PF,1666370731
172,Torata,-17.0769,-70.8433,69.15,23,6,12.91,PE,1666370731
173,Praia da Vitória,38.7333,-27.0667,71.85,56,20,19.1,PT,1666370732
174,Gobabis,-22.45,18.9667,82.0,26,91,10.54,NA,1666370732
175,Kawalu,-7.3817,108.2082,72.84,96,100,1.07,ID,1666370733
176,Pevek,69.7008,170.3133,23.56,95,100,1.92,RU,1666370733
177,Nantucket,41.2835,-70.0995,64.54,58,0,6.91,US,1666370734
178,Severo-Yeniseyskiy,60.3725,93.0408,31.17,93,100,7.96,RU,1666370734
179,Nacala,-14.5428,40.6728,73.72,79,73,6.96,MZ,1666370735
180,Neuquén,-38.9516,-68.0591,51.33,59,100,7.81,AR,1666370735
181,Muhos,64.808,25.9931,37.18,88,98,5.44,FI,1666370736
182,Gweta,-20.1833,25.2333,85.1,19,15,9.46,BW,1666370736
183,Chicama,-7.8447,-79.1469,59.54,59,86,9.89,PE,1666370686
184,Pizarro,4.9533,-77.366,77.67,88,97,6.82,CO,1666370737
185,Horsham,51.064,-0.3272,64.02,85,40,12.66,GB,1666370737
186,Yar-Sale,66.8333,70.8333,29.44,95,86,10.78,RU,1666370738
187,Peddāpuram,17.0833,82.1333,80.69,83,19,6.4,IN,1666370738
188,Kapaa,22.0752,-159.319,78.78,88,40,9.22,US,1666370739
189,Dalby,-27.1833,151.2667,63.99,92,100,14.72,AU,1666370739
190,Hof,50.3167,11.9167,56.43,93,75,12.66,DE,1666370739
191,Inuvik,68.3499,-133.7218,21.96,90,100,5.75,CA,1666370740
192,Ossora,59.2353,163.0719,27.93,64,100,4.18,RU,1666370741
193,Burlington,39.8835,-74.6413,65.93,34,0,3.44,US,1666370616
194,Kaputa,-8.4689,29.6619,81.63,41,86,5.95,ZM,1666370742
195,Geraldton,-28.7667,114.6,61.63,84,5,9.33,AU,1666370743
196,Naze,28.3667,129.4833,76.12,85,98,15.32,JP,1666370744
197,Novaya Lyalya,59.055,60.599,30.45,75,83,8.86,RU,1666370745
198,Guerrero Negro,27.9769,-114.0611,72.64,71,22,2.68,MX,1666370707
199,Belogorsk,50.9158,128.4611,30.09,63,84,6.31,RU,1666370746
200,Bathsheba,13.2167,-59.5167,88.41,70,40,16.11,BB,1666370747
201,Alta Floresta,-9.8756,-56.0861,91.22,58,40,8.05,BR,1666370475
202,Karauli,26.5,77.0167,75.78,44,0,8.08,IN,1666370747
203,Oga,46.4631,10.347,50.54,97,100,4.7,IT,1666370748
204,Bintulu,3.1667,113.0333,77.41,100,40,3.44,MY,1666370748
205,Hamilton,39.1834,-84.5333,67.21,36,75,12.66,US,1666370749
206,Spas-Klepiki,55.1347,40.1767,37.94,90,100,4.43,RU,1666370749
207,Hambantota,6.1241,81.1185,79.45,76,100,5.48,LK,1666370749
208,Alto Araguaia,-17.3147,-53.2153,75.87,73,100,4.97,BR,1666370750
209,Fethiye,36.6217,29.1164,67.87,55,0,2.28,TR,1666370750
210,Bilma,18.6853,12.9164,82.81,15,1,8.59,NE,1666370751
211,Talnakh,69.4865,88.3972,34.21,97,100,15.95,RU,1666370751
212,Tonj,7.2737,28.6822,71.62,94,93,8.61,SS,1666370751
213,Katakwi,1.8911,33.9661,73.4,68,100,4.59,UG,1666370752
214,Lukulu,-14.3707,23.242,82.26,27,76,5.03,ZM,1666370752
215,Mount Isa,-20.7333,139.5,76.51,30,0,8.39,AU,1666370753
216,Grindavik,63.8424,-22.4338,42.75,81,0,12.66,IS,1666370753
217,Henties Bay,-22.116,14.2845,59.27,88,12,8.37,NA,1666370754
218,Benguela,-12.5763,13.4055,77.2,75,39,7.76,AO,1666370754
219,São João da Barra,-21.6403,-41.0511,86.09,76,57,23.26,BR,1666370708
220,Gilgit,35.9221,74.3087,57.04,42,0,1.68,PK,1666370755
221,Beringovskiy,63.05,179.3167,32.16,96,99,1.88,RU,1666370755
222,Port Elizabeth,-33.918,25.5701,64.69,97,100,5.75,ZA,1666370756
223,Peniche,39.3558,-9.3811,68.11,87,97,13.53,PT,1666370502
224,Ribeira Grande,38.5167,-28.7,68.4,60,75,20.71,PT,1666370756
225,Lodja,-3.4833,23.4333,70.27,98,91,3.76,CD,1666370757
226,Buenos Aires,-34.6132,-58.3772,75.99,73,100,5.75,AR,1666370676
227,Ténenkou,14.4572,-4.9169,97.38,13,75,7.96,ML,1666370757
228,Lagoa,39.05,-27.9833,65.79,75,99,27.96,PT,1666370758
229,Tandur,17.2333,77.5833,71.47,91,57,6.58,IN,1666370758
230,Westport,41.1415,-73.3579,64.81,43,0,3.44,US,1666370640
231,Alyangula,-13.8483,136.4192,81.93,80,53,9.89,AU,1666370759
232,Säkylä,61.0333,22.3333,44.94,74,100,4.21,FI,1666370761
233,Payo,-3.7508,103.6372,73.26,99,100,1.36,ID,1666370761
234,Gladstone,-23.85,151.25,73.33,88,100,4.61,AU,1666370762
235,Hithadhoo,-0.6,73.0833,81.73,77,100,8.95,MV,1666370763
236,Myitkyina,25.3833,97.4,72.45,79,0,1.7,MM,1666370764
237,Hervey Bay,-25.2986,152.8535,69.03,97,100,5.99,AU,1666370764
238,Sabang,5.8933,95.3214,80.56,77,100,20.36,ID,1666370765
239,Båtsfjord,70.6345,29.7185,30.13,86,0,9.22,NO,1666370766
240,Provincia di Ancona,43.55,13.1667,69.35,66,75,5.75,IT,1666370766
241,Teguise,29.0605,-13.564,77.22,65,0,13.8,ES,1666370767
242,Aksay,47.26,39.87,50.25,67,59,18.01,RU,1666370768
243,Coahuayana Viejo,18.7333,-103.6833,84.07,67,100,1.52,MX,1666370768
244,Port Augusta,-32.5,137.7667,61.36,88,16,6.04,AU,1666370771
245,Varhaug,58.6147,5.6457,53.15,69,100,14.79,NO,1666370771
246,Bella Vista,36.4295,-94.2316,77.04,38,0,10.36,US,1666370729
247,Rāmgarh,23.6333,85.5167,75.25,76,0,4.47,IN,1666370772
248,Esperance,-33.8667,121.9,57.34,76,100,6.26,AU,1666370773
249,Yamada,39.4667,141.95,54.01,81,42,6.24,JP,1666370774
250,Nouadhibou,20.931,-17.0347,78.78,61,4,13.8,MR,1666370775
251,Khatanga,71.9667,102.5,3.94,95,68,2.59,RU,1666370777
252,Nizhniy Tsasuchey,50.5167,115.1333,31.71,58,100,5.46,RU,1666370777
253,Vila Franca do Campo,37.7167,-25.4333,68.41,69,67,17.0,PT,1666370731
254,Saint-Augustin,51.226,-58.6502,53.74,52,71,22.24,CA,1666370778
255,Tabou,4.423,-7.3528,79.34,81,89,5.97,CI,1666370779
256,Spornoye,50.8448,37.2913,37.81,74,11,6.11,RU,1666370779
257,Nelipyno,48.561,23.0315,51.4,60,100,2.35,UA,1666370780
258,Vicksburg,32.3526,-90.8779,74.93,52,0,11.5,US,1666370349
259,Broken Hill,-31.95,141.4333,63.93,81,32,7.47,AU,1666370702
260,High Level,58.5169,-117.136,39.31,81,75,2.3,CA,1666370707
261,Mahon,39.8885,4.2658,73.96,94,40,9.22,ES,1666370781
262,Halifax,44.6453,-63.5724,61.52,63,75,10.36,CA,1666370754
263,Shimoda,34.6667,138.95,64.11,73,94,12.3,JP,1666370782
264,Margate,51.3813,1.3862,63.9,78,51,7.0,GB,1666370783
265,Deputatsky,69.3,139.9,-6.32,97,38,6.67,RU,1666370738
266,Dongsheng,39.8161,109.9776,42.53,30,0,7.14,CN,1666370763
267,Kermanshah,34.3142,47.065,70.7,19,75,11.5,IR,1666370784
268,Hare Bay,48.8499,-54.0148,53.2,49,100,9.62,CA,1666370784
269,Vardø,70.3705,31.1107,30.18,80,20,8.05,NO,1666370785
270,Saint Anthony,45.0205,-93.218,64.35,48,0,11.5,US,1666370786
271,Broome,42.2506,-75.833,59.45,36,0,10.36,US,1666370786
272,Port Blair,11.6667,92.75,78.84,89,75,2.3,IN,1666370787
273,Bowen,-20.0167,148.2333,71.35,85,4,3.89,AU,1666370787
274,San Cristobal,7.7669,-72.225,77.18,59,57,1.03,VE,1666370788
275,Port Hueneme,34.1478,-119.1951,81.14,79,40,4.61,US,1666370788
276,Tekirdağ,40.978,27.5085,49.35,60,0,13.0,TR,1666370789
277,Mahon,39.8885,4.2658,73.96,94,40,9.22,ES,1666370789
278,Djambala,-2.5447,14.7533,69.76,91,100,2.26,CG,1666370790
279,Khoy,38.5504,44.9535,54.84,62,89,8.23,IR,1666370791
280,Asău,46.4333,26.4,40.28,56,5,4.14,RO,1666370681
281,Balezino,57.9796,53.0106,29.91,76,11,9.19,RU,1666370792
282,Hukuntsi,-24.0,21.75,83.14,18,7,11.05,BW,1666370792
283,Le Vauclin,14.5452,-60.8388,86.85,74,75,10.36,MQ,1666370793
284,Burgeo,47.6167,-57.6152,52.93,79,100,14.43,CA,1666370793
285,Ngawen,-7.0032,111.3129,75.16,94,100,7.14,ID,1666370794
286,Galle,6.0367,80.217,77.32,88,100,8.63,LK,1666370795
287,Port-Gentil,-0.7193,8.7815,79.03,81,33,10.29,GA,1666370689
288,Nchelenge,-9.3451,28.734,79.65,44,32,3.67,ZM,1666370796
289,Nakhon Pathom,13.9833,100.0833,77.05,89,95,3.94,TH,1666370796
290,Comodoro Rivadavia,-45.8667,-67.5,62.46,17,0,13.8,AR,1666370730
291,Tignère,7.3667,12.65,66.22,91,62,2.8,CM,1666370797
292,Hoi An,15.8794,108.335,76.96,87,64,5.48,VN,1666370797
293,Zelenoborskiy,66.845,32.3622,33.69,67,90,3.27,RU,1666370797
294,Port Hedland,-20.3167,118.5667,77.05,73,0,10.36,AU,1666370667
295,Derzhavīnsk,51.1,66.3167,52.79,39,98,10.67,KZ,1666370798
296,Matagami,49.7502,-77.6328,42.91,75,100,14.97,CA,1666370799
297,Ola,59.5833,151.2833,12.15,66,49,11.45,RU,1666370799
298,Opotiki,-38.0833,177.2833,42.39,87,5,6.49,NZ,1666370799
299,Buala,-8.145,159.5921,79.59,84,99,5.46,SB,1666370800
300,Kenai,60.5544,-151.2583,37.49,100,0,9.22,US,1666370800
301,Suntar,62.1444,117.6319,20.26,97,100,3.36,RU,1666370801
302,Cairns,-16.9167,145.7667,75.07,97,100,8.05,AU,1666370772
303,Harper,4.375,-7.7169,79.48,80,86,5.86,LR,1666370802
304,Santa Maria,-29.6842,-53.8069,76.3,53,40,8.05,BR,1666370553
305,Kropotkin,45.4375,40.5756,50.85,55,96,6.58,RU,1666370802
306,Ramos Arizpe,25.55,-100.9667,72.95,45,0,0.0,MX,1666370803
307,Kaeo,-35.1,173.7833,56.32,94,45,9.13,NZ,1666370803
308,Minot,48.2325,-101.2963,49.78,61,75,8.05,US,1666370740
309,Matara,5.9485,80.5353,76.6,89,100,9.37,LK,1666370804
310,Waseca,44.0777,-93.5074,62.24,44,0,8.05,US,1666370705
311,Newark,40.7357,-74.1724,64.99,34,0,4.61,US,1666370579
312,Marsh Harbour,26.5412,-77.0636,77.95,76,48,8.19,BS,1666370805
313,Mogadishu,2.0371,45.3438,78.08,80,77,11.52,SO,1666370805
314,Zyryanka,65.75,150.85,9.9,87,100,4.59,RU,1666370806
315,Xaltianguis,17.0667,-99.8333,69.31,67,99,2.95,MX,1666370806
316,Thompson,55.7435,-97.8558,39.36,65,75,12.66,CA,1666370561
317,Taltal,-25.4,-70.4833,62.87,63,16,5.23,CL,1666370807
318,Chardara,41.2547,67.9692,62.28,42,10,9.69,KZ,1666370807
319,Ponnāni,10.767,75.9252,74.52,82,94,3.24,IN,1666370808
320,Baruun-Urt,46.6806,113.2792,30.34,74,45,7.99,MN,1666370808
321,Brownsville,25.9018,-97.4975,82.9,58,40,8.05,US,1666370809
322,Taizhou,32.4933,119.9106,62.69,78,49,3.36,CN,1666370809
323,Santa Cruz Cabrália,-16.2781,-39.0247,80.83,69,40,16.11,BR,1666370810
324,Al Bardīyah,31.7561,25.0865,70.68,59,2,15.21,LY,1666370810
325,Elizabeth City,36.2946,-76.2511,68.04,41,0,5.75,US,1666370811
326,Qaqortoq,60.7167,-46.0333,36.3,96,100,9.86,GL,1666370811
327,Pecos,31.4229,-103.4932,76.3,40,0,3.44,US,1666370811
328,Biak,-0.9131,122.8766,77.02,85,61,1.16,ID,1666370714
329,Digby,44.6169,-65.7655,58.15,63,80,13.27,CA,1666370812
330,Werda,-25.2667,23.2833,84.51,18,42,7.61,BW,1666370812
331,Bhānpura,24.513,75.7469,72.66,40,0,5.21,IN,1666370813
332,Camacha,33.0833,-16.3333,67.42,78,40,6.91,PT,1666370813
333,Parabel',58.6978,81.4825,38.41,93,97,9.62,RU,1666370814
334,Waddān,29.1614,16.139,74.37,44,49,9.89,LY,1666370814
335,Huarmey,-10.0681,-78.1522,67.33,69,82,10.94,PE,1666370815
336,Fukuechō,32.6881,128.8419,70.95,71,100,9.26,JP,1666370815
337,Prince Rupert,54.3161,-130.3201,47.89,90,100,21.85,CA,1666370722
338,Ostrovnoy,68.0531,39.5131,32.9,71,100,12.44,RU,1666370668
339,Antofagasta,-23.65,-70.4,63.68,61,39,8.68,CL,1666370522
340,Iskateley,67.6803,53.1512,34.47,90,100,16.96,RU,1666370817
341,Tongzi,28.7829,105.0877,72.07,49,57,0.36,CN,1666370817
342,Rawson,-43.3002,-65.1023,54.55,32,0,8.12,AR,1666370818
343,Takaungu,-3.6837,39.8566,79.29,86,96,10.87,KE,1666370819
344,Provideniya,64.3833,-173.3,34.09,95,97,8.77,RU,1666370819
345,Ankang,32.68,109.0172,61.12,74,8,0.85,CN,1666370819
346,Kutum,14.2,24.6667,83.14,21,65,7.14,SD,1666370820
347,Monrovia,6.3005,-10.7969,80.65,76,82,7.25,LR,1666370821
348,Alofi,-19.0595,-169.9187,69.69,100,60,2.3,NU,1666370821
349,Ketchikan,55.3422,-131.6461,46.87,93,100,3.44,US,1666370822
350,Luanda,-8.8368,13.2343,78.8,78,20,13.8,AO,1666370522
351,Olafsvik,64.8945,-23.7142,39.54,73,100,7.72,IS,1666370822
352,Abu Kamal,34.4506,40.9171,74.52,48,100,5.01,SY,1666370823
353,Half Moon Bay,37.4636,-122.4286,62.78,94,100,6.91,US,1666370779
354,Lensk,60.7253,114.9278,27.63,85,98,4.03,RU,1666370823
355,Pacific Grove,36.6177,-121.9166,55.65,90,40,3.44,US,1666370716
356,Saldanha,-33.0117,17.9442,66.25,73,33,29.53,ZA,1666370824
357,Banda Aceh,5.5577,95.3222,79.81,74,100,11.03,ID,1666370645
358,Bārsi,18.2333,75.7,73.04,86,71,13.38,IN,1666370825
359,Burns Lake,54.2331,-125.7533,26.02,84,81,2.8,CA,1666370726
360,Rocha,-34.4833,-54.3333,67.66,72,100,11.25,UY,1666370826
361,Rio de Janeiro,-22.9028,-43.2075,93.54,59,75,10.36,BR,1666370810
362,Causapscal,48.3542,-67.227,47.93,58,76,13.18,CA,1666370827
363,Saint-Pierre,-21.3393,55.4781,71.91,73,20,4.61,RE,1666370827
364,Great Bend,38.3645,-98.7648,77.04,27,0,6.91,US,1666370828
365,Santa Rosa,14.3122,121.1114,82.38,90,64,3.74,PH,1666370828
366,Barranca,-10.75,-77.7667,65.39,68,73,10.27,PE,1666370829
367,Bereket,39.2446,55.5154,71.35,56,28,8.68,TM,1666370829
368,Okmulgee,35.6234,-95.9605,77.02,33,0,10.36,US,1666370829
369,Mehamn,71.0357,27.8492,31.95,74,40,11.5,NO,1666370830
370,Airai,-8.9266,125.4092,62.65,91,66,0.81,TL,1666370747
371,Polson,47.6936,-114.1632,55.72,57,100,8.01,US,1666370830
372,Namatanai,-3.6667,152.4333,79.0,81,76,2.37,PG,1666370831
373,Arrondissement de Saint-Denis,48.9167,2.3333,66.97,69,0,12.66,FR,1666370832
374,Tiznit Province,29.5833,-9.5,84.49,20,11,4.94,MA,1666370832
375,Soyo,-6.1349,12.3689,77.47,82,100,9.06,AO,1666370832
376,Constitución,-35.3333,-72.4167,61.93,56,6,14.54,CL,1666370833
377,Chapais,49.7834,-74.8492,42.58,67,99,15.03,CA,1666370833
378,Buluang,13.3068,123.3425,76.98,93,90,2.8,PH,1666370834
379,Shepsi,44.0361,39.1489,54.64,69,96,4.7,RU,1666370834
380,Dingli,35.8614,14.3822,70.81,73,0,5.75,MT,1666370834
381,Greensburg,40.3015,-79.5389,61.63,37,88,3.0,US,1666370808
382,Pangkalanbuun,-2.6833,111.6167,75.58,95,100,2.46,ID,1666370835
383,Cam Ranh,11.9214,109.1591,76.96,78,20,3.44,VN,1666370836
384,Parksville,49.3163,-124.3195,49.64,93,100,5.75,CA,1666370836
385,Lipari,38.4674,14.954,74.21,68,20,4.54,IT,1666370836
386,Huanren,41.2647,125.3667,50.07,97,79,3.49,CN,1666370837
387,Sola,-13.8833,167.55,80.51,78,97,18.72,VU,1666370837
388,Evensk,61.95,159.2333,10.89,75,82,8.55,RU,1666370838
389,Comarapa,-17.9,-64.4833,60.04,67,99,3.13,BO,1666370838
390,Umluj,25.0213,37.2685,81.63,67,0,6.53,SA,1666370838
391,Cockburn Town,21.4612,-71.1419,83.35,74,75,14.38,TC,1666370652
392,Kaitangata,-46.2817,169.8464,35.82,90,6,5.41,NZ,1666370839
393,Central Point,42.376,-122.9164,59.63,64,0,1.01,US,1666370241
394,Kenora,49.8167,-94.4337,47.37,71,40,11.5,CA,1666370722
395,Severo-Kuril'sk,50.6789,156.125,40.17,78,51,15.41,RU,1666370840
396,Kirakira,-10.4544,161.9205,79.38,82,95,1.45,SB,1666370840
397,Saskylakh,71.9167,114.0833,6.49,98,66,4.63,RU,1666370841
398,Flinders,-34.5833,150.8552,66.18,91,100,4.0,AU,1666370841
399,Bambanglipuro,-7.95,110.2833,75.63,93,100,2.33,ID,1666370842
400,Letterkenny,54.95,-7.7333,58.93,91,100,11.65,IE,1666370842
401,Assaré,-6.8744,-39.875,97.63,22,70,5.35,BR,1666370843
402,Inta,66.0317,60.1659,32.41,98,100,14.94,RU,1666370844
403,Lagunas,-5.2269,-75.6753,95.13,41,100,4.83,PE,1666370844
404,Salalah,17.0151,54.0924,80.69,69,20,3.44,OM,1666370845
405,Hirara,24.8,125.2833,80.2,89,98,11.99,JP,1666370845
406,Kendari,-3.945,122.4989,77.79,87,43,1.16,ID,1666370846
407,Luena,-11.7833,19.9167,76.32,38,91,4.5,AO,1666370846
408,Tamiahua,21.2667,-97.45,76.01,74,80,4.56,MX,1666370846
409,Zhezkazgan,47.8043,67.7144,51.71,35,0,9.15,KZ,1666370723
410,Teseney,15.11,36.6575,91.9,23,26,7.85,ER,1666370847
411,Vasil'sursk,56.1275,46.0072,31.73,87,73,5.23,RU,1666370847
412,Egvekinot,66.3167,-179.1667,25.32,93,100,5.93,RU,1666370845
413,Timizart,36.8,4.2667,76.96,42,66,0.65,DZ,1666370848
414,Pochutla,15.7432,-96.4661,86.83,70,53,4.41,MX,1666370849
415,Alibunan,11.1465,122.4591,77.95,90,88,3.38,PH,1666370849
416,Bonavista,48.6499,-53.1147,54.55,60,96,7.83,CA,1666370849
417,Esso,55.9333,158.7,9.81,97,94,4.85,RU,1666370850
418,Bobrovskiy,56.6732,60.9807,33.96,93,75,6.71,RU,1666370850
419,Moranbah,-22.0016,148.0466,65.01,88,56,4.56,AU,1666370851
420,Rudnogorsk,57.2639,103.7519,28.96,86,100,3.85,RU,1666370851
421,São Miguel do Araguaia,-13.275,-50.1628,97.81,27,99,7.2,BR,1666370595
422,Trelew,-43.249,-65.3051,58.89,19,0,4.45,AR,1666370852
423,Bull Savanna,17.8868,-77.5902,83.21,65,44,6.96,JM,1666370852
424,Nyeri,-0.4201,36.9476,63.39,53,98,7.74,KE,1666370853
425,Phalombe,-15.8064,35.6507,79.86,36,88,3.58,MW,1666370853
426,Golfito,8.639,-83.166,82.31,79,52,3.94,CR,1666370854
427,Oisterwijk,51.5792,5.1889,64.18,82,100,8.05,NL,1666370854
428,Talaya,61.3833,152.75,-4.92,100,99,1.23,RU,1666370855
429,Kaniama,-7.5667,24.1833,66.07,91,98,6.49,CD,1666370856
430,Jinchang,38.4953,102.1739,47.59,35,85,5.14,CN,1666370856
431,Kuril'sk,45.2333,147.8833,51.13,85,100,10.47,RU,1666370857
432,Katsuura,35.1333,140.3,68.67,71,61,15.39,JP,1666370858
433,Muisne,0.6,-80.0333,76.84,76,98,10.31,EC,1666370860
434,Juneau,58.3019,-134.4197,44.6,97,100,9.22,US,1666370862
435,Pathein,16.7833,94.7333,76.12,84,77,3.56,MM,1666370862
436,Vaitape,-16.5167,-151.75,79.14,76,11,17.96,PF,1666370862
437,Upington,-28.4478,21.2561,79.18,36,75,14.97,ZA,1666370863
438,Faanui,-16.4833,-151.75,79.16,76,12,17.96,PF,1666370863
439,Alekseyevsk,57.8406,108.3492,28.87,92,71,2.8,RU,1666370864
440,Bam,29.106,58.357,75.58,16,3,2.73,IR,1666370864
441,Divnoye,45.9089,43.3547,47.05,55,26,17.81,RU,1666370865
442,Province of Trapani,37.8333,12.6667,71.69,78,0,10.36,IT,1666370865
443,Baoshan,46.5586,131.4244,39.54,94,100,7.83,CN,1666370865
444,Port-Cartier,50.0334,-66.8654,48.42,63,80,14.03,CA,1666370866
445,Vestmannaeyjar,63.4427,-20.2734,45.59,76,75,5.75,IS,1666370866
446,Heraclea,37.5133,34.0467,55.8,43,77,6.85,TR,1666370867
447,Nauta,-4.5061,-73.5757,94.86,42,99,3.78,PE,1666370868
448,Sioux Lookout,50.1001,-91.917,50.07,76,75,11.5,CA,1666370725
449,Oranjemund,-28.55,16.4333,60.35,82,24,19.69,NA,1666370870
450,Nanortalik,60.1432,-45.2371,39.11,92,100,16.91,GL,1666370688
451,Olinda,-8.0089,-34.8553,82.13,65,75,9.22,BR,1666370871
452,Titron,29.6681,77.3225,71.15,59,0,4.34,IN,1666370871
453,Londoko,49.0333,131.9833,34.72,95,98,3.31,RU,1666370872
454,Sesheke,-17.4759,24.2968,86.54,21,64,10.98,ZM,1666370872
455,Tramandaí,-29.9847,-50.1336,72.66,75,46,12.57,BR,1666370872
456,Laem Sing,12.4816,102.0738,81.01,94,100,9.62,TH,1666370873
457,Salinas,36.6777,-121.6555,56.07,85,100,5.75,US,1666370873
458,Saurimo,-9.6608,20.3916,76.14,48,73,3.89,AO,1666370874
459,Smithers,54.7804,-127.1743,32.32,93,75,3.44,CA,1666370874
460,Ust'-Ishim,57.6935,71.1665,38.25,78,98,6.38,RU,1666370875
461,Ancud,-41.8697,-73.8203,54.23,55,2,8.34,CL,1666370875
462,Bainbridge Island,47.6262,-122.5212,53.64,84,100,6.91,US,1666370756
463,Sørland,67.667,12.6934,42.66,69,100,14.47,NO,1666370876
464,Marystown,47.1666,-55.1483,56.1,64,94,10.92,CA,1666370877
465,Korla,41.7597,86.1469,52.38,30,0,4.88,CN,1666370877
466,Hong Kong,22.2855,114.1577,77.38,78,100,5.99,HK,1666370875
467,Baghdad,33.3406,44.4009,85.91,26,75,13.8,IQ,1666370663
468,Franca,-20.5386,-47.4008,67.68,78,100,9.04,BR,1666370882
469,Quatre Cocos,-20.2078,57.7625,73.51,82,20,11.05,MU,1666370883
470,Muros,42.7762,-9.0603,63.84,83,43,17.63,ES,1666370883
471,Tautira,-17.7333,-149.15,76.95,81,43,16.64,PF,1666370884
472,Viçosa,-20.7539,-42.8819,83.19,50,95,13.49,BR,1666370885
473,Rabo de Peixe,37.8,-25.5833,67.51,86,40,21.85,PT,1666370886
474,Gorontalo,0.5412,123.0595,76.01,95,86,3.06,ID,1666370886
475,Puerto Ayacucho,5.6639,-67.6236,90.3,56,42,4.36,VE,1666370887
476,São Filipe,14.8961,-24.4956,79.16,76,56,4.47,CV,1666370889
477,Lábrea,-7.2586,-64.7981,94.53,42,96,4.92,BR,1666370890
478,Vangaindrano,-23.35,47.6,69.49,85,19,6.69,MG,1666370890
479,Moirāng,24.5,93.7667,63.09,90,0,1.3,IN,1666370891
480,Lüderitz,-26.6481,15.1594,66.04,68,3,27.69,NA,1666370891
481,Itupiranga,-5.1347,-49.3267,98.92,35,63,3.78,BR,1666370892
482,Havelock,34.8791,-76.9013,66.18,56,40,9.22,US,1666370892
483,Shingū,33.7333,135.9833,62.13,80,94,6.31,JP,1666370801
484,Narsaq,60.9167,-46.05,34.02,98,100,8.86,GL,1666370893
485,Ishikawa,26.4233,127.8214,79.12,94,75,11.5,JP,1666370893
486,Nortelândia,-14.4547,-56.8028,87.58,55,100,6.8,BR,1666370894
487,Consuegra,39.4625,-3.608,62.1,64,100,15.37,ES,1666370895
488,Kahului,20.8947,-156.47,76.84,68,0,4.61,US,1666370691
489,Zwiesel,49.0167,13.2333,58.91,90,100,4.0,DE,1666370895
490,Ibrā’,22.6906,58.5334,76.95,26,0,2.46,OM,1666370896
491,Monywa,22.1167,95.1333,78.57,73,0,4.59,MM,1666370897
492,Tilichiki,60.4667,166.1,13.57,89,33,5.64,RU,1666370897
493,Tygda,53.1167,126.3333,30.04,69,100,5.75,RU,1666370898
494,Kétou,7.3633,2.5998,79.95,80,66,5.86,BJ,1666370898
495,Lingao,19.9103,109.6859,74.35,84,49,7.65,CN,1666370899
496,Talcahuano,-36.7167,-73.1167,60.48,48,0,13.8,CL,1666370899
497,Verkhnevilyuysk,63.4453,120.3167,20.35,97,88,4.45,RU,1666370868
498,Campos Altos,-19.6961,-46.1714,79.5,42,98,9.44,BR,1666370901
499,Tuatapere,-46.1333,167.6833,36.72,90,4,3.76,NZ,1666370903
500,Corn Island,12.1694,-83.0418,82.02,75,32,8.84,NI,1666370903
501,Beidao,34.5686,105.8933,58.95,51,77,2.66,CN,1666370904
502,Paso de los Toros,-32.8167,-56.5167,76.15,57,85,11.43,UY,1666370904
503,Honiara,-9.4333,159.95,78.06,87,71,0.94,SB,1666370906
504,Santa Cruz de La Palma,28.6835,-17.7642,75.34,78,75,5.75,ES,1666370891
505,Beyneu,45.3167,55.2,55.53,63,81,22.95,KZ,1666370906
506,Oodweyne,9.4092,45.064,78.94,51,93,10.42,SO,1666370696
507,Outlook,51.5001,-107.0513,46.24,38,100,7.02,CA,1666370907
508,Leh,34.1667,77.5833,30.65,49,51,3.74,IN,1666370908
509,Sembakung,3.8167,117.25,74.44,98,98,1.52,ID,1666370909
510,Portland,45.5234,-122.6762,54.21,81,100,5.75,US,1666370663
511,Santa Cruz de la Sierra,-17.8,-63.1667,80.65,65,75,11.5,BO,1666370720
512,Afonso Bezerra,-5.4983,-36.5056,98.46,25,40,11.79,BR,1666370909
513,Lagos,6.5833,3.75,86.32,82,63,5.26,NG,1666370645
514,The Valley,18.217,-63.0578,87.66,70,40,13.8,AI,1666370910
515,Srednekolymsk,67.45,153.6833,13.71,95,100,12.12,RU,1666370911
516,Batagay-Alyta,67.8006,130.4114,5.27,90,97,3.18,RU,1666370698
517,Tongliao,43.6125,122.2653,45.82,56,59,7.87,CN,1666370911
518,Arona,28.0996,-16.681,73.9,79,20,11.5,ES,1666370912
519,Nagornyy,52.7959,83.5498,51.71,54,100,15.3,RU,1666370912
520,Palmer,42.1584,-72.3287,62.51,36,0,1.01,US,1666370913
521,Manga,11.6636,-1.0731,91.18,31,9,3.02,BF,1666370913
522,Vostok,46.4856,135.8833,41.56,96,99,3.02,RU,1666370913
523,Elkton,39.6068,-75.8333,65.46,34,0,4.0,US,1666370914
524,Qasigiannguit,68.8193,-51.1922,32.25,99,100,4.16,GL,1666370914
525,Okhotsk,59.3833,143.3,24.91,62,99,14.2,RU,1666370915
526,Haines Junction,60.7522,-137.5108,26.55,93,100,2.3,CA,1666370915
527,Pontian Kecil,1.4801,103.3899,81.01,84,83,5.48,MY,1666370916
528,Valley City,46.9233,-98.0032,54.12,54,0,9.22,US,1666370917
529,Abatskiy,56.2875,70.4555,41.61,89,99,8.5,RU,1666370918
530,Zhalantun,48.0,122.7167,32.95,90,99,4.59,CN,1666370918
531,Tuşnad,46.2,25.9,43.2,50,6,1.3,RO,1666370919
532,Celestún,20.8667,-90.4,79.39,54,9,7.45,MX,1666370919
533,Pyapon,16.2833,95.6833,76.91,84,82,5.03,MM,1666370831
534,Skara,58.3866,13.4384,45.63,90,100,4.0,SE,1666370920
535,Boyuibe,-20.4167,-63.2833,85.91,22,7,7.25,BO,1666370920
536,Kjøpsvik,68.097,16.3742,42.67,81,99,7.58,NO,1666370920
537,São José da Coroa Grande,-8.8978,-35.1478,80.98,65,30,9.44,BR,1666370921
538,La Ronge,55.1001,-105.2842,41.25,60,40,13.8,CA,1666370921
539,Williams Lake,52.1415,-122.1445,35.17,86,75,3.44,CA,1666370725
540,Rantepao,-2.9701,119.8978,66.7,95,80,2.42,ID,1666370922
541,Pueblo,38.2545,-104.6091,74.16,15,0,24.16,US,1666370923
542,Vilhena,-12.7406,-60.1458,80.82,74,75,9.22,BR,1666370924
543,Rūdbār,30.15,62.6,72.5,13,38,3.24,AF,1666370925
544,Robe,-37.1833,139.75,57.87,93,88,7.56,AU,1666370925
545,Kudahuvadhoo,2.6708,72.8944,81.95,72,79,13.13,MV,1666370927
546,Kurunegala,7.4863,80.3623,72.07,97,100,1.7,LK,1666370927
547,Verāval,20.9,70.3667,82.67,67,16,8.23,IN,1666370928
548,Xingyi,24.1877,102.817,59.49,89,98,2.82,CN,1666370929
549,Praia,14.9215,-23.5087,88.34,51,0,9.22,CV,1666370849
550,Fairbanks,64.8378,-147.7164,34.61,94,100,6.91,US,1666370841
551,Calituban,10.24,124.2919,80.69,76,75,4.61,PH,1666370929
552,Simav,39.0882,28.9777,47.34,42,0,6.42,TR,1666370930
553,Yarmouth,41.7057,-70.2286,64.96,53,0,5.75,US,1666370930
554,Menongue,-14.6585,17.691,80.94,27,92,5.17,AO,1666370930
555,Boshnyakovo,49.6333,142.1667,37.09,83,100,4.41,RU,1666370931
556,Wajir,1.7471,40.0573,87.85,33,53,7.29,KE,1666370931
557,Buriti Bravo,-5.8372,-43.8336,98.74,27,55,4.25,BR,1666370633
558,Iqaluit,63.7506,-68.5145,37.13,86,75,20.71,CA,1666370754
559,Wajima,37.4,136.9,67.28,75,85,19.93,JP,1666370932
560,Muroto-misakicho,33.2833,134.15,68.85,64,99,4.47,JP,1666370933
561,San Patricio,28.017,-97.5169,80.49,43,0,11.63,US,1666370775
562,Labuhan,-6.8844,112.2051,79.32,84,100,7.78,ID,1666370684
563,Masaka,-0.3338,31.7341,66.92,72,95,1.97,UG,1666370933
564,Grand Gaube,-20.0064,57.6608,73.8,75,6,5.99,MU,1666370934
565,Wanning,18.8003,110.3967,76.19,92,99,9.08,CN,1666370934
566,Markova,48.6758,24.4138,44.11,57,100,4.79,UA,1666370938
567,Staraya Poltavka,50.4772,46.4814,43.43,82,100,18.14,RU,1666370938
568,Puerto Colombia,10.9878,-74.9547,89.69,70,55,1.34,CO,1666370940
569,Verkhniy Fiagdon,42.8333,44.3053,38.07,92,93,1.57,RU,1666370940
570,Synya,65.3718,58.0387,32.61,98,100,9.95,RU,1666370941
571,Pangnirtung,66.1451,-65.7125,32.0,86,100,5.75,CA,1666370693
572,Iguape,-24.7081,-47.5553,83.98,59,88,7.45,BR,1666370941
